accuracy_m,altitude_m,bearing_degrees,latitude,longitude,speed_m_s,time_usec,vertical_accuracy_m
3.2160000801086426,212.6451416015625,0.0,55.75391061,48.74155034,0.0,89283751018,6.0
3.2160000801086426,212.6746826171875,0.0,55.75391043,48.74155047,0.0,89284760868,6.0
3.2160000801086426,212.7041015625,0.0,55.75391024,48.74155053,0.0,89285758036,6.0
3.2160000801086426,212.7313232421875,0.0,55.75390995,48.7415505,0.0,89286751354,6.0
3.2160000801086426,213.8543701171875,169.8000030517578,55.75390653,48.7415536,0.28999999165534973,89287754069,6.0
3.2160000801086426,215.76312255859375,167.89999389648438,55.75390037,48.74155423,0.18000000715255737,89288755626,6.0
3.2160000801086426,214.2669677734375,167.0,55.75388808,48.74154963,0.23000000417232513,89289749991,6.0
3.2160000801086426,216.328125,165.39999389648438,55.75387542,48.74155013,0.3499999940395355,89290751122,6.0
3.2160000801086426,213.4659423828125,164.3000030517578,55.75385408,48.74154924,1.2999999523162842,89291753433,6.0
3.2160000801086426,211.30810546875,165.0,55.75383736,48.74154821,0.6000000238418579,89292744917,6.0
3.2160000801086426,208.13983154296875,166.60000610351562,55.75382475,48.74154363,0.5400000214576721,89293746256,6.0
5.360000133514404,201.8681640625,167.6999969482422,55.75381067,48.74153027,0.27000001072883606,89294761692,8.0
6.432000160217285,196.78680419921875,167.60000610351562,55.75379497,48.74151433,0.47999998927116394,89295748971,8.0
6.432000160217285,193.9708251953125,169.10000610351562,55.75377872,48.74149611,0.7200000286102295,89296768861,8.0
7.504000186920166,191.15582275390625,170.10000610351562,55.75375857,48.74148677,0.9200000166893005,89297767673,12.0
7.504000186920166,189.001953125,170.89999389648438,55.7537259,48.74147848,2.680000066757202,89298750035,12.0
7.504000186920166,186.43292236328125,200.0,55.75368202,48.74145046,3.380000114440918,89299767345,12.0
8.576000213623047,181.4718017578125,201.8000030517578,55.75363349,48.74140282,3.9100000858306885,89300756712,12.0
7.504000186920166,184.6563720703125,203.10000610351562,55.75349403,48.74135108,5.880000114440918,89301756774,12.0
7.504000186920166,184.79217529296875,205.10000610351562,55.75343406,48.74132669,5.480000019073486,89302747930,12.0
7.504000186920166,185.9747314453125,205.60000610351562,55.75337772,48.7412894,3.2699999809265137,89303767668,8.0
6.432000160217285,186.3353271484375,200.5,55.75332526,48.7413007,2.3499999046325684,89304748894,8.0
6.432000160217285,187.15106201171875,188.6999969482422,55.75328743,48.74129913,1.909999966621399,89305748667,8.0
6.432000160217285,186.962158203125,169.89999389648438,55.75326108,48.74130135,2.390000104904175,89306760107,8.0
6.432000160217285,187.36346435546875,144.6999969482422,55.75323905,48.74131823,2.700000047683716,89307758375,8.0
5.360000133514404,187.6776123046875,121.69999694824219,55.75322181,48.7413642,3.940000057220459,89308760927,8.0
5.360000133514404,188.87457275390625,111.0999984741211,55.75320414,48.74143265,4.739999771118164,89309754180,8.0
4.288000106811523,189.2174072265625,106.5,55.75318857,48.74150703,4.849999904632568,89310754146,6.0
4.288000106811523,189.26544189453125,102.30000305175781,55.75317506,48.74157837,4.559999942779541,89311753312,6.0
3.2160000801086426,189.995361328125,100.80000305175781,55.75316627,48.74164591,4.389999866485596,89312751129,6.0
3.2160000801086426,190.4945068359375,102.5,55.75315666,48.74170054,3.5399999618530273,89313751725,6.0
4.288000106811523,192.01922607421875,111.5999984741211,55.7531437,48.74175174,3.2699999809265137,89314751774,6.0
3.2160000801086426,193.55712890625,128.1999969482422,55.75311763,48.74179341,3.0299999713897705,89315764068,6.0
3.2160000801086426,193.423095703125,150.10000610351562,55.75308719,48.74182473,3.240000009536743,89316749931,6.0
3.2160000801086426,194.9417724609375,173.5,55.75304582,48.74183901,3.940000057220459,89317755201,6.0
3.2160000801086426,193.56842041015625,188.8000030517578,55.75299589,48.74182732,4.190000057220459,89318758413,6.0
3.2160000801086426,194.333984375,193.8000030517578,55.75291557,48.7417981,5.769999980926514,89319758252,6.0
3.2160000801086426,195.0234375,190.6999969482422,55.75286416,48.74180621,5.440000057220459,89320758305,6.0
4.288000106811523,194.2928466796875,181.6999969482422,55.75279262,48.74179127,6.179999828338623,89321769995,6.0
4.288000106811523,194.82177734375,159.6999969482422,55.75273509,48.74181004,5.400000095367432,89322787103,6.0
4.288000106811523,195.56048583984375,132.60000610351562,55.75270086,48.741864,5.349999904632568,89323766250,6.0
3.2160000801086426,195.6842041015625,112.80000305175781,55.7526549,48.74193263,6.239999771118164,89324754589,6.0
4.288000106811523,196.8751220703125,110.0,55.75263663,48.74206944,8.199999809265137,89325759979,6.0
3.2160000801086426,195.991455078125,110.30000305175781,55.75260712,48.74219244,9.220000267028809,89326767236,6.0
3.2160000801086426,196.707763671875,109.9000015258789,55.75257749,48.7423361,10.039999961853027,89327790916,6.0
3.2160000801086426,197.0416259765625,111.5999984741211,55.75254239,48.74247429,9.800000190734863,89328758753,6.0
3.2160000801086426,196.9805908203125,112.0999984741211,55.75251127,48.74261609,9.5600004196167,89329760931,6.0
3.2160000801086426,197.009521484375,111.4000015258789,55.75247575,48.74274922,9.020000457763672,89330765256,4.0
3.2160000801086426,197.1455078125,112.0,55.75244172,48.74287838,8.779999732971191,89331750824,4.0
3.2160000801086426,196.7879638671875,110.9000015258789,55.75241612,48.74300515,8.489999771118164,89332751821,6.0
3.2160000801086426,196.97308349609375,110.9000015258789,55.75238575,48.74312765,8.289999961853027,89333769218,6.0
3.2160000801086426,196.9766845703125,113.5,55.7523554,48.74324868,8.130000114440918,89334769412,4.0
3.2160000801086426,197.9019775390625,116.9000015258789,55.75232308,48.74336393,7.96999979019165,89335747116,4.0
3.2160000801086426,198.649658203125,121.5999984741211,55.75228533,48.7434709,7.849999904632568,89336753436,4.0
3.2160000801086426,199.2161865234375,127.5999984741211,55.75224535,48.74357218,7.679999828338623,89337767298,4.0
3.2160000801086426,199.5416259765625,130.0,55.75220414,48.74366065,7.190000057220459,89338751879,4.0
3.2160000801086426,199.7215576171875,133.5,55.75216347,48.74373583,6.389999866485596,89339758810,4.0
3.2160000801086426,200.36785888671875,137.3000030517578,55.75212002,48.74380051,6.099999904632568,89340762279,6.0
3.2160000801086426,200.2552490234375,140.6999969482422,55.75207647,48.74385724,6.110000133514404,89341773413,4.0
4.288000106811523,200.33966064453125,145.6999969482422,55.75203492,48.74391269,6.289999961853027,89342757747,6.0
3.2160000801086426,200.69659423828125,151.1999969482422,55.75198091,48.74396662,6.809999942779541,89343773823,6.0
3.2160000801086426,201.0142822265625,156.6999969482422,55.75192367,48.7440119,7.190000057220459,89344770685,4.0
3.2160000801086426,200.6397705078125,164.60000610351562,55.75185927,48.74404517,7.679999828338623,89345760478,6.0
3.2160000801086426,200.642578125,176.0,55.75179342,48.74406217,7.909999847412109,89346754150,4.0
3.2160000801086426,200.5711669921875,186.6999969482422,55.75172097,48.74405328,8.479999542236328,89347762550,4.0
3.2160000801086426,200.78009033203125,196.5,55.75164153,48.74402171,9.140000343322754,89348758643,4.0
3.2160000801086426,201.13726806640625,201.1999969482422,55.75156141,48.7439782,9.829999923706055,89349758181,6.0
3.2160000801086426,201.289306640625,203.39999389648438,55.75147776,48.74391327,10.4399995803833,89350750060,6.0
3.2160000801086426,201.161376953125,203.8000030517578,55.75138998,48.74384304,10.710000038146973,89351752489,6.0
4.288000106811523,201.25067138671875,204.5,55.75130019,48.74376662,11.119999885559082,89352753737,6.0
4.288000106811523,201.37774658203125,204.1999969482422,55.75120832,48.74368914,11.430000305175781,89353766158,6.0
4.288000106811523,201.665283203125,204.1999969482422,55.75111193,48.74361231,11.850000381469727,89354750168,6.0
4.288000106811523,201.7939453125,205.3000030517578,55.75100993,48.74352728,12.300000190734863,89355747397,6.0
4.288000106811523,201.95751953125,206.5,55.7509063,48.74343572,12.779999732971191,89356758451,6.0
4.288000106811523,202.3125,205.6999969482422,55.75080262,48.74334693,13.050000190734863,89357752205,6.0
4.288000106811523,202.5750732421875,207.1999969482422,55.75069548,48.74325356,13.319999694824219,89358751499,6.0
4.288000106811523,202.03350830078125,207.60000610351562,55.75058069,48.74315216,13.569999694824219,89359747522,6.0
4.288000106811523,202.5009765625,208.10000610351562,55.75047432,48.74305226,13.479999542236328,89360764228,6.0
4.288000106811523,202.636474609375,208.3000030517578,55.75036656,48.74295263,13.460000038146973,89361768289,6.0
4.288000106811523,202.3973388671875,208.8000030517578,55.7502573,48.74284892,13.489999771118164,89362776755,6.0
4.288000106811523,203.03485107421875,208.8000030517578,55.7501534,48.74274981,13.289999961853027,89363773932,6.0
4.288000106811523,203.41339111328125,208.39999389648438,55.75004957,48.74264756,13.020000457763672,89364761418,6.0
4.288000106811523,203.5906982421875,208.89999389648438,55.74994797,48.74254673,12.920000076293945,89365765836,6.0
4.288000106811523,203.61669921875,209.0,55.7498446,48.7424488,12.90999984741211,89366758753,6.0
4.288000106811523,203.67242431640625,209.39999389648438,55.74974514,48.74235321,12.720000267028809,89367755545,6.0
4.288000106811523,203.96514892578125,209.1999969482422,55.74964793,48.74225567,12.65999984741211,89368755846,6.0
4.288000106811523,203.90740966796875,209.8000030517578,55.74954955,48.74215443,12.739999771118164,89369758226,6.0
4.288000106811523,204.050048828125,211.5,55.74945076,48.74204478,12.859999656677246,89370748558,6.0
4.288000106811523,204.2615966796875,211.89999389648438,55.74935343,48.74193587,13.050000190734863,89371761629,6.0
4.288000106811523,204.23236083984375,211.89999389648438,55.74925307,48.74181994,13.359999656677246,89372765403,6.0
4.288000106811523,204.374267578125,211.8000030517578,55.74914651,48.74170213,13.510000228881836,89373759101,6.0
4.288000106811523,205.031005859375,211.6999969482422,55.74904578,48.74158752,13.539999961853027,89374758285,6.0
4.288000106811523,205.82183837890625,211.6999969482422,55.74893708,48.74146304,13.710000038146973,89375763706,6.0
4.288000106811523,206.28656005859375,211.8000030517578,55.7488321,48.74134563,13.680000305175781,89376757390,6.0
4.288000106811523,206.783935546875,212.0,55.74872822,48.74122497,13.5600004196167,89377755990,6.0
4.288000106811523,207.08099365234375,212.39999389648438,55.7486284,48.74110862,13.329999923706055,89378751933,6.0
4.288000106811523,207.6092529296875,212.5,55.74852672,48.7409903,13.180000305175781,89379755258,6.0
4.288000106811523,207.5079345703125,212.6999969482422,55.74842844,48.74087989,12.930000305175781,89380754953,6.0
4.288000106811523,207.97900390625,213.10000610351562,55.74832927,48.74076364,12.84000015258789,89381753895,6.0
4.288000106811523,208.362060546875,213.89999389648438,55.74823122,48.74064964,12.489999771118164,89382749353,6.0
4.288000106811523,208.9073486328125,214.8000030517578,55.74815189,48.74054636,11.4399995803833,89383747017,6.0
4.288000106811523,209.171630859375,215.6999969482422,55.74806975,48.74044135,10.949999809265137,89384752237,6.0
4.288000106811523,209.623291015625,216.60000610351562,55.74799281,48.740339,10.050000190734863,89385756839,6.0
4.288000106811523,209.66162109375,216.89999389648438,55.74792043,48.74024192,9.029999732971191,89386746981,6.0
4.288000106811523,209.80078125,217.10000610351562,55.74786326,48.74016345,8.0,89387760264,6.0
4.288000106811523,209.765869140625,217.10000610351562,55.74781794,48.74009914,6.739999771118164,89388752467,6.0
4.288000106811523,209.785888671875,209.1999969482422,55.74777453,48.74005257,5.400000095367432,89389750091,6.0
4.288000106811523,208.93402099609375,187.5,55.74772731,48.74004116,4.050000190734863,89390763539,6.0
4.288000106811523,208.9512939453125,156.0,55.74769649,48.74006412,3.5899999141693115,89391754337,6.0
4.288000106811523,208.8988037109375,126.5999984741211,55.74767236,48.74011713,4.460000038146973,89392764715,6.0
4.288000106811523,208.152099609375,114.30000305175781,55.74765169,48.7401941,5.71999979019165,89393763041,6.0
3.2160000801086426,208.24407958984375,117.0999984741211,55.74762466,48.74027755,6.489999771118164,89394765564,6.0
3.2160000801086426,208.3662109375,118.80000305175781,55.74759283,48.74037728,7.46999979019165,89395748918,6.0
3.2160000801086426,208.4283447265625,119.5,55.74755698,48.74048084,7.989999771118164,89396753099,6.0
3.2160000801086426,208.2403564453125,119.80000305175781,55.74751841,48.74059612,8.529999732971191,89397758382,6.0
3.2160000801086426,208.06866455078125,120.69999694824219,55.74747786,48.74070548,8.449999809265137,89398755619,6.0
3.2160000801086426,208.1927490234375,121.0,55.74744043,48.7408158,8.069999694824219,89399752451,6.0
3.2160000801086426,208.376708984375,121.19999694824219,55.74740265,48.74092152,7.849999904632568,89400755681,4.0
3.2160000801086426,208.5426025390625,121.19999694824219,55.74736686,48.74102577,7.630000114440918,89401753937,4.0
3.2160000801086426,208.89215087890625,121.4000015258789,55.74733088,48.74112613,7.510000228881836,89402755465,4.0
3.2160000801086426,208.8731689453125,121.30000305175781,55.74729576,48.74122388,7.28000020980835,89403752086,4.0
3.2160000801086426,209.3084716796875,121.30000305175781,55.74725864,48.74132278,7.409999847412109,89404751351,6.0
3.2160000801086426,209.3160400390625,120.9000015258789,55.74722745,48.74142847,7.480000019073486,89405755694,6.0
3.2160000801086426,209.38494873046875,120.69999694824219,55.74719284,48.74152878,7.380000114440918,89406752862,6.0
3.2160000801086426,209.80615234375,120.5999984741211,55.74715719,48.74163203,7.550000190734863,89407750052,6.0
3.2160000801086426,209.90447998046875,120.69999694824219,55.74712554,48.74173538,7.53000020980835,89408762684,6.0
3.2160000801086426,210.1591796875,120.80000305175781,55.74709273,48.74183817,7.329999923706055,89409747975,6.0
3.2160000801086426,210.4139404296875,121.30000305175781,55.74706166,48.74193411,6.900000095367432,89410748955,6.0
3.2160000801086426,211.07916259765625,121.80000305175781,55.7470298,48.74202675,6.630000114440918,89411755353,6.0
3.2160000801086426,211.6024169921875,121.5,55.74699959,48.74211378,6.210000038146973,89412763303,4.0
3.2160000801086426,211.906494140625,116.19999694824219,55.74698124,48.7421894,4.840000152587891,89413760747,4.0
3.2160000801086426,212.11712646484375,101.4000015258789,55.74697132,48.74225782,4.150000095367432,89414755697,4.0
3.2160000801086426,211.982177734375,83.5999984741211,55.74697075,48.74231486,3.7200000286102295,89415759477,6.0
3.2160000801086426,212.2286376953125,63.79999923706055,55.7469851,48.74237748,4.079999923706055,89416749618,6.0
3.2160000801086426,213.0738525390625,44.70000076293945,55.74700685,48.74242297,3.940000057220459,89417749487,6.0
3.2160000801086426,213.05413818359375,32.599998474121094,55.74703405,48.74245767,4.300000190734863,89418764844,6.0
4.288000106811523,213.42547607421875,25.899999618530273,55.74707197,48.74249116,4.949999809265137,89419753158,6.0
4.288000106811523,213.9541015625,24.5,55.74711432,48.74252856,5.619999885559082,89420757046,6.0
4.288000106811523,214.072998046875,24.200000762939453,55.74716355,48.74256545,6.079999923706055,89421756360,6.0
5.360000133514404,214.3660888671875,24.399999618530273,55.74721477,48.74261186,6.329999923706055,89422760784,6.0
5.360000133514404,214.90130615234375,24.5,55.7472651,48.74265333,6.46999979019165,89423757001,8.0
6.432000160217285,215.68170166015625,25.0,55.74730938,48.74269332,6.460000038146973,89424770616,8.0
6.432000160217285,215.54736328125,25.700000762939453,55.74736371,48.74273724,6.71999979019165,89425766509,8.0
7.504000186920166,216.685302734375,25.799999237060547,55.74742372,48.74278599,7.110000133514404,89426773484,12.0
7.504000186920166,217.68768310546875,26.0,55.74748135,48.74283825,7.71999979019165,89427769498,12.0
7.504000186920166,219.18450927734375,25.899999618530273,55.74755765,48.74290072,8.229999542236328,89428751697,12.0
7.504000186920166,222.4886474609375,25.399999618530273,55.74765008,48.7429657,8.760000228881836,89429752573,12.0
9.648000717163086,224.94879150390625,25.0,55.74772279,48.74302082,8.699999809265137,89430767241,12.0
8.576000213623047,222.31927490234375,26.5,55.74772911,48.74306483,7.179999828338623,89431763503,12.0
7.504000186920166,222.24737548828125,26.299999237060547,55.74778632,48.74312077,6.920000076293945,89432775858,12.0
7.504000186920166,222.10198974609375,26.200000762939453,55.74784333,48.74317419,6.670000076293945,89433769625,12.0
7.504000186920166,223.31842041015625,26.200000762939453,55.74789879,48.7432263,6.46999979019165,89434765588,12.0
16.079999923706055,225.2598876953125,26.700000762939453,55.7479633,48.74328324,6.25,89435761720,24.0
16.079999923706055,227.24346923828125,27.200000762939453,55.74803859,48.74334753,6.039999961853027,89436754714,24.0
16.079999923706055,227.769287109375,28.0,55.74808448,48.74339149,5.809999942779541,89437766311,24.0
17.152000427246094,227.0423583984375,30.5,55.74813398,48.74344272,4.429999828338623,89438749459,24.0
17.152000427246094,226.53466796875,35.0,55.74816056,48.74347968,3.869999885559082,89439767230,24.0
15.008000373840332,226.29144287109375,44.20000076293945,55.74817863,48.74351256,3.0899999141693115,89440766572,24.0
7.504000186920166,226.2254638671875,60.599998474121094,55.74819059,48.74355237,2.9200000762939453,89441787960,12.0
7.504000186920166,226.85321044921875,83.5,55.74819647,48.74360152,3.009999990463257,89442765629,12.0
7.504000186920166,225.096923828125,108.80000305175781,55.74818103,48.74364295,3.2799999713897705,89443754209,12.0
6.432000160217285,223.443359375,121.30000305175781,55.74815551,48.74368654,4.019999980926514,89444754324,8.0
6.432000160217285,223.37030029296875,120.80000305175781,55.74812436,48.74377255,5.150000095367432,89445759717,12.0
6.432000160217285,222.9307861328125,118.19999694824219,55.74810343,48.74384922,5.389999866485596,89446753041,8.0
5.360000133514404,223.037841796875,117.30000305175781,55.74807537,48.74392905,5.900000095367432,89447752389,8.0
5.360000133514404,223.39599609375,116.9000015258789,55.74804923,48.74401113,6.070000171661377,89448753661,8.0
4.288000106811523,223.1973876953125,117.0,55.74801728,48.74409707,6.349999904632568,89449753078,8.0
4.288000106811523,223.228271484375,117.30000305175781,55.74799187,48.7441847,6.230000019073486,89450749047,6.0
4.288000106811523,223.1768798828125,117.30000305175781,55.74796673,48.74427106,5.929999828338623,89451750984,6.0
3.2160000801086426,223.39422607421875,117.5,55.74794019,48.74435535,6.079999923706055,89452748837,6.0
3.2160000801086426,222.9283447265625,118.19999694824219,55.74791031,48.74444242,6.5,89453766352,6.0
3.2160000801086426,222.90435791015625,118.5999984741211,55.74787862,48.74453427,6.579999923706055,89454747807,6.0
3.2160000801086426,222.6619873046875,119.0,55.74784939,48.74462518,6.510000228881836,89455764268,6.0
3.2160000801086426,222.032470703125,119.5,55.74782046,48.74471501,6.340000152587891,89456774650,6.0
3.2160000801086426,221.615234375,119.4000015258789,55.74779453,48.74479534,5.809999942779541,89457758924,6.0
3.2160000801086426,221.601806640625,119.0999984741211,55.74777326,48.74487385,5.059999942779541,89458768698,6.0
3.2160000801086426,220.771240234375,118.9000015258789,55.74774739,48.74494503,4.159999847412109,89459760070,6.0
3.2160000801086426,220.72991943359375,117.5999984741211,55.74773014,48.74499355,3.2100000381469727,89460757339,6.0
3.2160000801086426,220.68121337890625,113.5999984741211,55.74771909,48.74503861,3.059999942779541,89461766342,6.0
3.2160000801086426,219.57666015625,103.19999694824219,55.74770794,48.74509105,3.880000114440918,89462763265,6.0
4.288000106811523,219.659423828125,79.5,55.74771429,48.74515395,4.28000020980835,89463756894,6.0
4.288000106811523,219.95709228515625,53.900001525878906,55.74773617,48.74521505,4.679999828338623,89464758628,6.0
4.288000106811523,220.456298828125,39.29999923706055,55.74777067,48.74527117,5.300000190734863,89465759264,6.0
4.288000106811523,219.3626708984375,30.200000762939453,55.74781745,48.74532416,6.170000076293945,89466756845,6.0
4.288000106811523,218.3465576171875,26.700000762939453,55.74787668,48.74538402,7.25,89467753961,6.0
4.288000106811523,218.1593017578125,26.399999618530273,55.74793603,48.74543627,7.409999847412109,89468756520,6.0
3.2160000801086426,218.0369873046875,26.799999237060547,55.74799726,48.74549207,7.610000133514404,89469755449,6.0
4.288000106811523,217.9775390625,27.399999618530273,55.74805957,48.74554611,7.96999979019165,89470762215,6.0
4.288000106811523,217.6649169921875,27.700000762939453,55.74811988,48.74560408,8.09000015258789,89471756172,6.0
3.2160000801086426,217.7694091796875,27.899999618530273,55.74818387,48.7456661,8.119999885559082,89472750436,6.0
3.2160000801086426,217.886962890625,27.899999618530273,55.74824953,48.74572959,8.359999656677246,89473755163,6.0
3.2160000801086426,217.95782470703125,28.399999618530273,55.74831613,48.74579363,8.579999923706055,89474788324,6.0
3.2160000801086426,217.90020751953125,28.700000762939453,55.74838256,48.74585754,8.579999923706055,89475775048,6.0
3.2160000801086426,217.46795654296875,28.5,55.74844809,48.745921,8.5600004196167,89476750905,6.0
3.2160000801086426,217.28350830078125,27.899999618530273,55.74852342,48.74598521,8.850000381469727,89477757615,4.0
3.2160000801086426,217.68719482421875,28.100000381469727,55.74859527,48.74604869,9.050000190734863,89478781040,4.0
3.2160000801086426,217.63623046875,28.200000762939453,55.74866202,48.74611041,8.289999961853027,89479765947,4.0
3.2160000801086426,217.4735107421875,28.299999237060547,55.74872379,48.74617214,7.670000076293945,89480756430,6.0
3.2160000801086426,217.34320068359375,28.299999237060547,55.74877949,48.74622786,6.989999771118164,89481761375,6.0
3.2160000801086426,217.73297119140625,28.200000762939453,55.74883174,48.74627504,6.360000133514404,89482772496,4.0
3.2160000801086426,217.3153076171875,27.700000762939453,55.74887316,48.74631809,5.590000152587891,89483755799,6.0
3.2160000801086426,217.0306396484375,27.799999237060547,55.74891555,48.74635147,5.460000038146973,89484763606,6.0
4.288000106811523,216.97784423828125,28.5,55.74895539,48.74639603,5.099999904632568,89485768114,6.0
4.288000106811523,216.72149658203125,29.0,55.74899048,48.74642908,4.619999885559082,89486770184,6.0
4.288000106811523,217.22802734375,28.0,55.74903774,48.74647759,5.559999942779541,89487766395,6.0
3.2160000801086426,217.14117431640625,27.5,55.74908448,48.74651633,6.090000152587891,89488756531,6.0
3.2160000801086426,217.14666748046875,27.0,55.74913535,48.74655621,6.480000019073486,89489797427,6.0
3.2160000801086426,217.8094482421875,23.899999618530273,55.74918932,48.74659919,6.389999866485596,89490760974,6.0
3.2160000801086426,217.7239990234375,21.299999237060547,55.74924464,48.74663255,6.400000095367432,89491766197,6.0
3.2160000801086426,217.591796875,23.399999618530273,55.74930072,48.74667145,6.730000019073486,89492757366,4.0
3.2160000801086426,217.26873779296875,25.799999237060547,55.74935616,48.74671814,6.900000095367432,89493765909,4.0
3.2160000801086426,217.063232421875,27.5,55.74941337,48.74676473,6.989999771118164,89494755239,4.0
3.2160000801086426,216.88604736328125,27.399999618530273,55.7494713,48.74681868,7.199999809265137,89495754869,4.0
3.2160000801086426,216.6156005859375,26.799999237060547,55.74953149,48.74687023,7.360000133514404,89496763570,4.0
3.2160000801086426,216.633544921875,26.399999618530273,55.74959202,48.74692075,7.449999809265137,89497780906,4.0
3.2160000801086426,216.377197265625,26.600000381469727,55.74964955,48.74697269,7.25,89498772455,4.0
3.2160000801086426,215.7464599609375,27.0,55.7497047,48.7470204,6.889999866485596,89499761810,4.0
4.288000106811523,214.583984375,27.200000762939453,55.74975672,48.74707061,6.869999885559082,89500751171,6.0
4.288000106811523,214.021728515625,27.5,55.74981228,48.74712196,6.940000057220459,89501776122,6.0
5.360000133514404,213.39898681640625,28.100000381469727,55.74986778,48.7471775,6.880000114440918,89502766176,6.0
4.288000106811523,213.0369873046875,28.200000762939453,55.74992545,48.74722941,6.920000076293945,89503760507,6.0
4.288000106811523,213.26287841796875,28.700000762939453,55.74998293,48.74729068,7.059999942779541,89504766178,6.0
4.288000106811523,212.82440185546875,29.399999618530273,55.7500391,48.74734635,6.96999979019165,89505756430,6.0
3.2160000801086426,212.1097412109375,30.200000762939453,55.75009151,48.74740043,6.710000038146973,89506759380,6.0
4.288000106811523,212.7244873046875,28.899999618530273,55.75013735,48.74744767,6.179999828338623,89507759429,6.0
4.288000106811523,212.25048828125,28.5,55.7501797,48.7474916,5.769999980926514,89508760873,6.0
4.288000106811523,211.00341796875,27.899999618530273,55.75022454,48.74752259,5.800000190734863,89509763081,6.0
4.288000106811523,211.31494140625,29.100000381469727,55.75026602,48.74755336,5.360000133514404,89510761465,6.0
4.288000106811523,211.13360595703125,31.200000762939453,55.7503071,48.74759681,5.460000038146973,89511755483,6.0
3.2160000801086426,210.572509765625,31.200000762939453,55.75035385,48.74764503,5.5,89512761817,6.0
3.2160000801086426,210.6903076171875,30.399999618530273,55.75040684,48.74770355,6.210000038146973,89513760638,6.0
3.2160000801086426,210.4229736328125,30.700000762939453,55.7504542,48.74775379,5.949999809265137,89514760585,6.0
3.2160000801086426,210.31439208984375,29.799999237060547,55.75050235,48.74780298,6.46999979019165,89515758641,4.0
3.2160000801086426,211.3924560546875,29.0,55.7505546,48.74784778,6.659999847412109,89516750855,4.0
3.2160000801086426,211.48114013671875,28.5,55.75060936,48.74789952,6.869999885559082,89517757397,4.0
3.2160000801086426,211.576904296875,27.899999618530273,55.75066386,48.7479517,6.929999828338623,89518752240,4.0
3.2160000801086426,210.9620361328125,27.299999237060547,55.75071774,48.74800252,6.960000038146973,89519757508,4.0
3.2160000801086426,211.2218017578125,25.600000381469727,55.75077586,48.74805463,6.989999771118164,89520753448,4.0
3.2160000801086426,210.89520263671875,25.899999618530273,55.75082813,48.74810171,6.699999809265137,89521776610,4.0
3.2160000801086426,210.5621337890625,25.899999618530273,55.75087994,48.74814829,6.610000133514404,89522758089,4.0
3.2160000801086426,210.38134765625,26.0,55.75093226,48.74819335,6.269999980926514,89523763325,4.0
3.2160000801086426,210.58294677734375,27.200000762939453,55.75097657,48.74823317,5.380000114440918,89524763291,4.0
3.2160000801086426,211.15423583984375,32.099998474121094,55.75100971,48.74827293,4.210000038146973,89525767177,4.0
3.2160000801086426,211.45977783203125,39.0,55.75103762,48.74831828,4.019999980926514,89526769016,4.0
3.2160000801086426,211.235595703125,48.29999923706055,55.75105663,48.7483553,2.940000057220459,89527764323,4.0
3.2160000801086426,211.88427734375,59.5,55.75107197,48.74839789,3.130000114440918,89528757316,4.0
3.2160000801086426,211.1092529296875,76.5,55.75107691,48.74845188,3.6500000953674316,89529763509,4.0
3.2160000801086426,211.1925048828125,90.30000305175781,55.75107881,48.74851994,4.53000020980835,89530763066,4.0
3.2160000801086426,210.935302734375,97.80000305175781,55.75107061,48.74860146,5.769999980926514,89531765169,4.0
3.2160000801086426,210.55096435546875,101.30000305175781,55.75106063,48.74869641,6.849999904632568,89532763965,4.0
3.2160000801086426,210.7188720703125,103.4000015258789,55.75104865,48.74881398,7.829999923706055,89533764774,4.0
3.2160000801086426,210.69091796875,104.0999984741211,55.751032,48.74894488,8.65999984741211,89534760369,4.0
3.2160000801086426,211.28924560546875,105.4000015258789,55.75101233,48.74908741,9.369999885559082,89535759983,4.0
3.2160000801086426,211.413330078125,106.5,55.7509893,48.74923329,9.8100004196167,89536756153,3.0
3.2160000801086426,211.79644775390625,107.0,55.75096416,48.74938872,10.279999732971191,89537751197,3.0
3.2160000801086426,211.758544921875,106.5999984741211,55.7509379,48.74955233,10.899999618530273,89538754398,4.0
3.2160000801086426,211.5003662109375,106.0999984741211,55.75091175,48.74972741,11.470000267028809,89539755210,4.0
3.2160000801086426,211.77593994140625,105.69999694824219,55.75088346,48.7499099,12.020000457763672,89540756970,4.0
3.2160000801086426,211.3062744140625,105.5999984741211,55.7508521,48.75009339,12.319999694824219,89541755854,4.0
3.2160000801086426,210.91778564453125,106.19999694824219,55.75082093,48.75028562,12.680000305175781,89542781895,4.0
3.2160000801086426,210.58538818359375,106.69999694824219,55.75078963,48.75048134,12.90999984741211,89543775978,4.0
3.2160000801086426,210.6529541015625,105.30000305175781,55.75075828,48.75068279,13.0600004196167,89544787418,3.0
3.2160000801086426,210.2135009765625,104.5999984741211,55.75072916,48.75088339,13.239999771118164,89545754262,3.0
3.2160000801086426,210.34619140625,104.4000015258789,55.75070005,48.75109464,13.640000343322754,89546763537,3.0
3.2160000801086426,210.2373046875,104.5,55.75067005,48.75130651,13.6899995803833,89547791945,3.0
3.2160000801086426,210.4989013671875,104.5999984741211,55.75064005,48.75151638,13.229999542236328,89548763682,3.0
3.2160000801086426,210.42474365234375,104.69999694824219,55.75061023,48.75171564,12.720000267028809,89549773533,3.0
3.2160000801086426,210.43292236328125,104.69999694824219,55.75058348,48.75191233,12.399999618530273,89550798211,3.0
3.2160000801086426,209.81396484375,104.9000015258789,55.75055816,48.75209712,12.010000228881836,89551761896,3.0
3.2160000801086426,208.80487060546875,105.19999694824219,55.75053374,48.75227606,11.489999771118164,89552769075,4.0
3.2160000801086426,208.90728759765625,105.30000305175781,55.7505068,48.75244985,11.09000015258789,89553776261,4.0
3.2160000801086426,208.76068115234375,106.30000305175781,55.75047989,48.75261706,10.710000038146973,89554771667,4.0
3.2160000801086426,208.6138916015625,109.19999694824219,55.75045103,48.75277594,10.300000190734863,89555772746,3.0
3.2160000801086426,208.119873046875,112.80000305175781,55.75041621,48.7529257,9.979999542236328,89556767670,3.0
3.2160000801086426,207.7706298828125,115.30000305175781,55.75037936,48.75306962,9.890000343322754,89557759562,3.0
3.2160000801086426,207.6663818359375,117.4000015258789,55.75033957,48.75320881,9.760000228881836,89558760262,4.0
3.2160000801086426,207.65350341796875,119.30000305175781,55.75029896,48.75334456,9.59000015258789,89559754511,4.0
3.2160000801086426,207.9302978515625,121.19999694824219,55.75025544,48.75347738,9.399999618530273,89560757749,3.0
3.2160000801086426,207.77081298828125,123.0999984741211,55.75021067,48.7536005,9.199999809265137,89561757123,3.0
3.2160000801086426,207.9981689453125,124.4000015258789,55.75016488,48.75372011,8.920000076293945,89562755057,3.0
3.2160000801086426,207.86236572265625,125.19999694824219,55.75011978,48.75383315,8.59000015258789,89563754875,3.0
3.2160000801086426,207.94775390625,125.5999984741211,55.75007442,48.7539479,8.579999923706055,89564754280,3.0
3.2160000801086426,208.1212158203125,123.30000305175781,55.75003216,48.75405803,8.199999809265137,89565753408,3.0
3.2160000801086426,207.7335205078125,116.80000305175781,55.74999751,48.75416676,7.579999923706055,89566766985,4.0
3.2160000801086426,207.570556640625,107.0,55.74997632,48.75427942,7.239999771118164,89567753452,4.0
3.2160000801086426,207.374267578125,97.5999984741211,55.74996736,48.75439092,7.010000228881836,89568754427,4.0
3.2160000801086426,207.12030029296875,86.0999984741211,55.74996843,48.75450379,6.980000019073486,89569750000,4.0
3.2160000801086426,206.3433837890625,73.5,55.74998298,48.75461151,6.739999771118164,89570759206,4.0
3.2160000801086426,206.6480712890625,59.5,55.75000871,48.75470554,6.489999771118164,89571776066,4.0
3.2160000801086426,206.5233154296875,45.0,55.75004709,48.75478579,6.25,89572764169,4.0
3.2160000801086426,206.9476318359375,33.70000076293945,55.75009765,48.75484406,6.539999961853027,89573769553,6.0
3.2160000801086426,206.92889404296875,22.100000381469727,55.75015287,48.75488942,6.71999979019165,89574759219,6.0
4.288000106811523,206.8642578125,9.800000190734863,55.75021251,48.75490749,7.090000152587891,89575767653,6.0
4.288000106811523,207.14892578125,357.3999938964844,55.75028006,48.75491586,7.409999847412109,89576757882,6.0
4.288000106811523,207.87322998046875,346.0,55.75034455,48.7548954,7.309999942779541,89577758676,6.0
4.288000106811523,207.47430419921875,333.79998779296875,55.75040446,48.75485186,7.150000095367432,89578762218,6.0
4.288000106811523,207.50042724609375,321.29998779296875,55.75045516,48.75478929,6.820000171661377,89579761405,6.0
4.288000106811523,207.4119873046875,308.6000061035156,55.75049773,48.75471197,6.480000019073486,89580757790,6.0
3.2160000801086426,207.41058349609375,295.29998779296875,55.75052766,48.75462426,6.190000057220459,89581754869,6.0
3.2160000801086426,207.63836669921875,281.29998779296875,55.75054337,48.75452217,6.489999771118164,89582754913,6.0
3.2160000801086426,207.78271484375,268.6000061035156,55.7505454,48.75441481,6.800000190734863,89583759830,4.0
3.2160000801086426,208.21533203125,259.20001220703125,55.75053818,48.75430773,6.949999809265137,89584761882,6.0
3.2160000801086426,208.1446533203125,256.70001220703125,55.75052589,48.75420074,7.139999866485596,89585761017,4.0
3.2160000801086426,207.6710205078125,256.70001220703125,55.75051418,48.75408593,7.46999979019165,89586756762,4.0
3.2160000801086426,207.28753662109375,258.29998779296875,55.75049898,48.75396494,8.0,89587756254,4.0
3.2160000801086426,206.94952392578125,260.8999938964844,55.75048934,48.75383657,8.510000228881836,89588752619,4.0
3.2160000801086426,206.801025390625,264.6000061035156,55.75048083,48.75369904,9.170000076293945,89589763540,4.0
3.2160000801086426,206.693359375,268.70001220703125,55.75048526,48.75356518,9.520000457763672,89590756069,4.0
3.2160000801086426,206.49560546875,271.8999938964844,55.75048862,48.75341284,9.789999961853027,89591766161,4.0
3.2160000801086426,206.5994873046875,274.8999938964844,55.75049631,48.75326014,9.989999771118164,89592765478,6.0
3.2160000801086426,206.7733154296875,277.6000061035156,55.75050867,48.75310709,10.09000015258789,89593763748,6.0
3.2160000801086426,207.3472900390625,279.6000061035156,55.75052905,48.75295874,10.010000228881836,89594766954,4.0
3.2160000801086426,207.3221435546875,280.8999938964844,55.75054345,48.75280265,10.300000190734863,89595761066,4.0
3.2160000801086426,207.910400390625,282.6000061035156,55.7505632,48.75264104,10.5,89596764202,4.0
3.2160000801086426,208.3077392578125,284.1000061035156,55.75058952,48.75247643,10.649999618530273,89597761305,6.0
3.2160000801086426,208.369384765625,284.20001220703125,55.75061572,48.75231019,10.760000228881836,89598772641,6.0
4.288000106811523,208.6756591796875,284.0,55.75063913,48.75214406,10.960000038146973,89599757433,6.0
4.288000106811523,209.1666259765625,284.1000061035156,55.75066424,48.75197449,11.180000305175781,89600771805,6.0
3.2160000801086426,209.48779296875,284.1000061035156,55.75069035,48.75180362,11.350000381469727,89601761077,6.0
4.288000106811523,209.62158203125,284.20001220703125,55.75071631,48.75162713,11.59000015258789,89602756780,6.0
4.288000106811523,209.9364013671875,284.5,55.75074679,48.75144892,11.760000228881836,89603758195,6.0
4.288000106811523,210.0545654296875,284.6000061035156,55.75077171,48.75126604,11.920000076293945,89604758850,6.0
3.2160000801086426,210.29925537109375,285.29998779296875,55.75080018,48.75107994,12.25,89605760295,4.0
3.2160000801086426,210.37799072265625,284.8999938964844,55.75082878,48.75088868,12.600000381469727,89606759437,4.0
3.2160000801086426,210.23150634765625,285.5,55.75085708,48.75069378,12.649999618530273,89607759139,4.0
3.2160000801086426,210.2945556640625,285.70001220703125,55.750889,48.75049976,12.779999732971191,89608789749,4.0
3.2160000801086426,210.40753173828125,285.70001220703125,55.75091969,48.75030239,12.819999694824219,89609756214,4.0
3.2160000801086426,210.7200927734375,285.8999938964844,55.75095043,48.75010564,12.729999542236328,89610756606,4.0
3.2160000801086426,210.77447509765625,286.20001220703125,55.75098254,48.74991303,12.529999732971191,89611757101,4.0
3.2160000801086426,210.73846435546875,286.79998779296875,55.75101397,48.74972864,12.079999923706055,89612760698,4.0
3.2160000801086426,210.67767333984375,287.5,55.7510467,48.74954345,12.220000267028809,89613761783,3.0
3.2160000801086426,210.27740478515625,287.8999938964844,55.75107989,48.74935613,12.550000190734863,89614761887,3.0
3.2160000801086426,209.8411865234375,288.20001220703125,55.7511165,48.74916403,12.899999618530273,89615797086,3.0
3.2160000801086426,209.9351806640625,288.5,55.75115281,48.74896331,13.119999885559082,89616756402,4.0
3.2160000801086426,209.643310546875,288.6000061035156,55.7511912,48.74876182,13.319999694824219,89617780706,4.0
3.2160000801086426,209.3416748046875,289.70001220703125,55.75123127,48.74855919,13.489999771118164,89618778992,4.0
3.2160000801086426,208.87091064453125,290.79998779296875,55.75127456,48.74835622,13.710000038146973,89619769780,3.0
3.2160000801086426,208.86883544921875,291.70001220703125,55.75132002,48.74814673,13.979999542236328,89620759209,4.0
3.2160000801086426,208.518798828125,291.79998779296875,55.75136599,48.74794182,14.079999923706055,89621769858,4.0
3.2160000801086426,208.4246826171875,291.8999938964844,55.7514115,48.74772855,14.220000267028809,89622767470,4.0
3.2160000801086426,208.127685546875,291.8999938964844,55.75145707,48.74751448,14.40999984741211,89623767145,4.0
3.2160000801086426,208.009765625,292.29998779296875,55.75150854,48.74729949,14.479999542236328,89624769748,4.0
3.2160000801086426,208.404541015625,292.79998779296875,55.75156133,48.74708789,14.270000457763672,89625770866,4.0
3.2160000801086426,208.0860595703125,292.8999938964844,55.75160875,48.74687994,13.960000038146973,89626765317,4.0
3.2160000801086426,208.02264404296875,293.0,55.75165506,48.74667968,13.520000457763672,89627785611,4.0
3.2160000801086426,207.68994140625,292.79998779296875,55.75169877,48.74648823,13.100000381469727,89628761779,4.0
3.2160000801086426,207.72076416015625,292.29998779296875,55.7517436,48.74629566,12.84000015258789,89629760985,4.0
3.2160000801086426,207.56494140625,293.29998779296875,55.75178932,48.74611277,12.520000457763672,89630751748,4.0
3.2160000801086426,207.385498046875,294.6000061035156,55.75183275,48.74593902,11.619999885559082,89631760345,3.0
3.2160000801086426,207.0572509765625,296.1000061035156,55.75187499,48.7457801,10.859999656677246,89632780741,3.0
3.2160000801086426,206.74591064453125,298.5,55.75192024,48.74563167,10.149999618530273,89633790554,4.0
3.2160000801086426,206.54901123046875,302.8999938964844,55.75196405,48.74550501,9.270000457763672,89634755842,3.0
3.2160000801086426,206.4136962890625,307.0,55.75200952,48.74539109,8.449999809265137,89635768978,3.0
3.2160000801086426,206.337158203125,310.70001220703125,55.75205338,48.74529549,7.460000038146973,89636776917,3.0
3.2160000801086426,206.46307373046875,315.3999938964844,55.75209926,48.74521371,7.070000171661377,89637763567,3.0
3.2160000801086426,206.4566650390625,320.8999938964844,55.75214636,48.74513964,6.940000057220459,89638750608,3.0
3.2160000801086426,206.18475341796875,325.3999938964844,55.75219598,48.74507222,6.949999809265137,89639755686,3.0
3.2160000801086426,206.26715087890625,325.3999938964844,55.7522481,48.7450077,6.989999771118164,89640760014,3.0
3.2160000801086426,206.41973876953125,319.6000061035156,55.75229821,48.74493407,7.110000133514404,89641773559,3.0
3.2160000801086426,206.411865234375,310.20001220703125,55.75234242,48.74484976,7.010000228881836,89642769872,3.0
3.2160000801086426,206.5125732421875,297.29998779296875,55.75237797,48.74474827,7.300000190734863,89643761614,4.0
3.2160000801086426,205.97607421875,283.29998779296875,55.75240124,48.74462118,7.760000228881836,89644754046,3.0
3.2160000801086426,206.0560302734375,269.8999938964844,55.75240435,48.74449396,8.140000343322754,89645751756,4.0
3.2160000801086426,205.5657958984375,262.3999938964844,55.75239698,48.74436172,8.5600004196167,89646755051,4.0
3.2160000801086426,205.2652587890625,262.79998779296875,55.75238976,48.74423055,8.819999694824219,89647757660,4.0
3.2160000801086426,204.8424072265625,266.8999938964844,55.75238467,48.74409255,8.989999771118164,89648763079,4.0
3.2160000801086426,204.57708740234375,272.6000061035156,55.75238564,48.74394275,9.680000305175781,89649768331,4.0
3.2160000801086426,203.8846435546875,278.20001220703125,55.75239587,48.74379322,10.109999656677246,89650765848,4.0
3.2160000801086426,203.750244140625,283.1000061035156,55.75241649,48.74362948,10.739999771118164,89651761847,4.0
4.288000106811523,202.9935302734375,285.5,55.75243726,48.74345898,11.279999732971191,89652760210,6.0
4.288000106811523,202.389404296875,287.8999938964844,55.75246735,48.74328214,11.8100004196167,89653772851,6.0
4.288000106811523,202.03094482421875,289.1000061035156,55.75250206,48.74310235,12.09000015258789,89654756392,6.0
3.2160000801086426,201.83123779296875,289.3999938964844,55.75253854,48.74291836,12.359999656677246,89655772123,6.0
3.2160000801086426,201.56787109375,289.6000061035156,55.7525755,48.74273292,12.149999618530273,89656776826,4.0
3.2160000801086426,201.243896484375,289.8999938964844,55.75261065,48.74255403,11.789999961853027,89657750806,4.0
3.2160000801086426,200.97412109375,291.3999938964844,55.75264726,48.74238236,11.34000015258789,89658768168,4.0
3.2160000801086426,200.5577392578125,292.3999938964844,55.75268125,48.74222745,10.069999694824219,89659754478,4.0
3.2160000801086426,200.51043701171875,293.70001220703125,55.75271338,48.74208811,8.770000457763672,89660751600,4.0
3.2160000801086426,200.22589111328125,299.29998779296875,55.75274604,48.74197885,7.099999904632568,89661752573,4.0
3.2160000801086426,200.00830078125,313.6000061035156,55.75278064,48.74190263,5.860000133514404,89662763335,4.0
3.2160000801086426,199.919189453125,329.8999938964844,55.75282234,48.74185485,5.639999866485596,89663766324,4.0
3.2160000801086426,199.896240234375,348.70001220703125,55.75286905,48.74182746,5.510000228881836,89664747449,4.0
3.2160000801086426,199.8447265625,6.800000190734863,55.7529156,48.74183003,5.610000133514404,89665760084,4.0
3.2160000801086426,199.94287109375,14.699999809265137,55.75296822,48.74185257,5.989999771118164,89666754850,4.0
3.2160000801086426,200.268310546875,18.200000762939453,55.75302227,48.74188126,6.380000114440918,89667758500,4.0
3.2160000801086426,200.5526123046875,17.399999618530273,55.7530821,48.74191238,6.78000020980835,89668759329,4.0
3.2160000801086426,200.50848388671875,16.399999618530273,55.75314678,48.74194438,7.460000038146973,89669756686,4.0
3.2160000801086426,200.783935546875,15.300000190734863,55.75321493,48.74197559,7.949999809265137,89670754943,4.0
3.2160000801086426,200.924072265625,15.399999618530273,55.75328529,48.74200739,8.029999732971191,89671760960,4.0
3.2160000801086426,201.0821533203125,14.399999618530273,55.75335427,48.74204094,8.029999732971191,89672761605,4.0
3.2160000801086426,201.34747314453125,15.399999618530273,55.75342266,48.74207194,7.440000057220459,89673753690,6.0
3.2160000801086426,201.43365478515625,15.100000381469727,55.75348436,48.74210263,6.920000076293945,89674756061,6.0
3.2160000801086426,201.43768310546875,15.300000190734863,55.75354791,48.74213378,7.260000228881836,89675751038,6.0
4.288000106811523,201.4564208984375,15.699999809265137,55.75361554,48.74216627,7.789999961853027,89676755496,6.0
3.2160000801086426,201.31787109375,15.100000381469727,55.75369333,48.74219818,8.449999809265137,89677753559,6.0
3.2160000801086426,201.35546875,15.0,55.7537663,48.74223247,8.5600004196167,89678750255,6.0
3.2160000801086426,201.6322021484375,15.100000381469727,55.75383737,48.74226546,8.149999618530273,89679753152,6.0
3.2160000801086426,201.61865234375,15.5,55.75390454,48.74229603,7.550000190734863,89680748036,6.0
3.2160000801086426,201.5732421875,15.5,55.7539676,48.74232499,7.070000171661377,89681751778,6.0
3.2160000801086426,201.5572509765625,12.899999618530273,55.75402695,48.74235004,6.599999904632568,89682755913,6.0
3.2160000801086426,201.53436279296875,6.699999809265137,55.75408239,48.74236246,6.090000152587891,89683751277,6.0
3.2160000801086426,201.7437744140625,348.8999938964844,55.75413009,48.7423511,4.900000095367432,89684769334,6.0
4.288000106811523,201.69232177734375,321.79998779296875,55.75416063,48.74231295,4.190000057220459,89685765898,6.0
4.288000106811523,201.7943115234375,298.20001220703125,55.7541855,48.7422558,4.269999980926514,89686751554,6.0
3.2160000801086426,202.1552734375,287.5,55.75420049,48.74218141,4.960000038146973,89687748081,6.0
4.288000106811523,202.18603515625,284.6000061035156,55.75421004,48.74209639,5.519999980926514,89688780413,6.0
4.288000106811523,201.864990234375,283.6000061035156,55.75422101,48.74201009,5.429999828338623,89689778499,6.0
4.288000106811523,201.328857421875,282.70001220703125,55.75423098,48.74193297,4.590000152587891,89690771421,6.0
4.288000106811523,201.68280029296875,274.5,55.75423502,48.74186303,4.0,89691774982,6.0
4.288000106811523,201.0157470703125,250.60000610351562,55.75422564,48.74180531,3.7100000381469727,89692762207,6.0
5.360000133514404,201.09814453125,218.10000610351562,55.75420266,48.74176526,3.680000066757202,89693758748,6.0
